{
    "type": "FeatureCollection",
    "features": [
        {
            "type": "Feature",
            "geometry": {
                "type": "Point",
                "coordinates": [
                    6.069128713625211,
                    50.765339999999995
                ]
            },
            "properties": {
                "address": "Morillenhang 27, Aachen, Germany",
                "CC": "Neuefeind",
                "Technik": "K\u00e4lte"
            }
        },
        {
            "type": "Feature",
            "geometry": {
                "type": "Point",
                "coordinates": [
                    10.089097350000001,
                    48.83318205
                ]
            },
            "properties": {
                "address": "Stuttgarterstra\u00dfe 23-25, Aalen, Germany",
                "CC": "K\u00f6nig",
                "Technik": "Gas-BW"
            }
        },
        {
            "type": "Feature",
            "geometry": {
                "type": "Point",
                "coordinates": [
                    9.1103426,
                    50.11789305
                ]
            },
            "properties": {
                "address": "Schillerstr. 125, Albstadt, Germany",
                "CC": "Gaiser",
                "Technik": "unbekannt"
            }
        },
        {
            "type": "Feature",
            "geometry": {
                "type": "Point",
                "coordinates": [
                    9.725898967808558,
                    48.33283326232293
                ]
            },
            "properties": {
                "address": "Hauptstra\u00dfe 100 - 106, Allmendingen, Germany",
                "CC": "Gaiser",
                "Technik": "BHKW"
            }
        },
        {
            "type": "Feature",
            "geometry": {
                "type": "Point",
                "coordinates": [
                    9.473048247936399,
                    48.90285854712207
                ]
            },
            "properties": {
                "address": "Im Reutle, Allmersbach, Germany",
                "CC": "Benzinger",
                "Technik": "unbekannt"
            }
        },
        {
            "type": "Feature",
            "geometry": {
                "type": "Point",
                "coordinates": [
                    9.838893680482277,
                    48.61552455
                ]
            },
            "properties": {
                "address": "Fabrikstr. 7, Altenstadt, Germany",
                "CC": "Gaiser",
                "Technik": "BHKW"
            }
        },
        {
            "type": "Feature",
            "geometry": {
                "type": "Point",
                "coordinates": [
                    7.9775476,
                    48.5581872
                ]
            },
            "properties": {
                "address": "Stra\u00dfburger Str. 77, Appenweier, Germany",
                "CC": "J\u00f6rke & Weber",
                "Technik": "EDL BHKW"
            }
        },
        {
            "type": "Feature",
            "geometry": {
                "type": "Point",
                "coordinates": [
                    9.1472506,
                    48.9064149
                ]
            },
            "properties": {
                "address": "Alleenstr., Asperg, Germany",
                "CC": "Gaiser",
                "Technik": "Kessel + BHKW"
            }
        },
        {
            "type": "Feature",
            "geometry": {
                "type": "Point",
                "coordinates": [
                    9.137494658991738,
                    48.919290450000005
                ]
            },
            "properties": {
                "address": "Lehenfeld 18, Asperg, Germany",
                "CC": "J\u00f6rke & Weber",
                "Technik": "WLV (BHKW + Kessel)"
            }
        },
        {
            "type": "Feature",
            "geometry": {
                "type": "Point",
                "coordinates": [
                    9.132458426247728,
                    48.909195825694816
                ]
            },
            "properties": {
                "address": "K\u00f6nigstr., Asperg, Germany",
                "CC": "Schetter",
                "Technik": "WLV (BHKW + Kessel)"
            }
        },
        {
            "type": "Feature",
            "geometry": {
                "type": "Point",
                "coordinates": [
                    9.1317545,
                    48.90306935
                ]
            },
            "properties": {
                "address": "Lange Str. 38-, Asperg, Germany",
                "CC": "Benzinger",
                "Technik": "WLV (BHKW m. BGG + Kessel)"
            }
        },
        {
            "type": "Feature",
            "geometry": {
                "type": "Point",
                "coordinates": [
                    9.635925098666629,
                    47.954038224604
                ]
            },
            "properties": {
                "address": "Parkstr. 6, Aulendorf, Germany",
                "CC": "Schetter",
                "Technik": "WLV (BHKW + Kessel)"
            }
        },
        {
            "type": "Feature",
            "geometry": {
                "type": "Point",
                "coordinates": [
                    9.635925098666629,
                    47.954038224604
                ]
            },
            "properties": {
                "address": "Parkstr. 2, Aulendorf, Germany",
                "CC": "Benzinger",
                "Technik": "unbekannt"
            }
        },
        {
            "type": "Feature",
            "geometry": {
                "type": "Point",
                "coordinates": [
                    10.2434507,
                    48.1448674
                ]
            },
            "properties": {
                "address": "Frundsbergstr. 36, Babenhausen, Germany",
                "CC": "Gaiser",
                "Technik": "unbekannt"
            }
        },
        {
            "type": "Feature",
            "geometry": {
                "type": "Point",
                "coordinates": [
                    9.599937165999282,
                    48.639196150000004
                ]
            },
            "properties": {
                "address": "Am Kurpark 1, Bad Boll, Germany",
                "CC": "Maier",
                "Technik": "Bereitst. BHKW"
            }
        },
        {
            "type": "Feature",
            "geometry": {
                "type": "Point",
                "coordinates": [
                    10.25252262077951,
                    47.87952
                ]
            },
            "properties": {
                "address": "Hinter den G\u00e4rten 9, Bad Gr\u00f6nenbach, Germany",
                "CC": "Gaiser",
                "Technik": "BHKW (Gas bauseits)"
            }
        },
        {
            "type": "Feature",
            "geometry": {
                "type": "Point",
                "coordinates": [
                    7.85405348682761,
                    49.8392628
                ]
            },
            "properties": {
                "address": "Kaiser-Wilhelm-Str. 19, Bad Kreuznach, Germany",
                "CC": "Essenpreis",
                "Technik": "BHKW (Bereitst. & WLV mit AP)"
            }
        },
        {
            "type": "Feature",
            "geometry": {
                "type": "Point",
                "coordinates": [
                    7.8556312860340896,
                    49.840330800000004
                ]
            },
            "properties": {
                "address": "Kaiser-Wilhelm-Stra\u00dfe 9, Bad Kreuznach, Germany",
                "CC": "Essenpreis",
                "Technik": "BHKW (Bereitstellung)"
            }
        },
        {
            "type": "Feature",
            "geometry": {
                "type": "Point",
                "coordinates": [
                    8.65067949283437,
                    49.2029643
                ]
            },
            "properties": {
                "address": "Badstr. 26, Bad Sch\u00f6nborn, Germany",
                "CC": "Essenpreis",
                "Technik": "Pellets"
            }
        },
        {
            "type": "Feature",
            "geometry": {
                "type": "Point",
                "coordinates": [
                    10.605749358180653,
                    48.000288185924425
                ]
            },
            "properties": {
                "address": "Kaufbeurer Str., Bad W\u00f6rishofen, Germany",
                "CC": "Gaiser",
                "Technik": "Kessel + BHKW"
            }
        },
        {
            "type": "Feature",
            "geometry": {
                "type": "Point",
                "coordinates": [
                    8.195032679621846,
                    48.7863099
                ]
            },
            "properties": {
                "address": "Ooser Bahnhofstra\u00dfe 28, Baden-Baden, Germany",
                "CC": "J\u00f6rke & Weber",
                "Technik": "WLV (BHKW + Kessel)"
            }
        },
        {
            "type": "Feature",
            "geometry": {
                "type": "Point",
                "coordinates": [
                    8.18440005,
                    48.77883125
                ]
            },
            "properties": {
                "address": "Sinzheimer Str., Baden-Baden (Oos), Germany",
                "CC": "Schetter",
                "Technik": "WLV (BHKW + Kessel)"
            }
        },
        {
            "type": "Feature",
            "geometry": {
                "type": "Point",
                "coordinates": [
                    13.582957878330575,
                    52.414893449999994
                ]
            },
            "properties": {
                "address": "Regattastr. 161), Berlin - Gr\u00fcnau, Germany",
                "CC": "Gaiser",
                "Technik": "unbekannt"
            }
        },
        {
            "type": "Feature",
            "geometry": {
                "type": "Point",
                "coordinates": [
                    7.894131403409091,
                    49.96375985
                ]
            },
            "properties": {
                "address": "Gaustra\u00dfe 13, Bingen, Germany",
                "CC": "Glitsch",
                "Technik": "Kessel (Gas)"
            }
        },
        {
            "type": "Feature",
            "geometry": {
                "type": "Point",
                "coordinates": [
                    9.924749447953166,
                    48.4139641
                ]
            },
            "properties": {
                "address": "Lindenstra\u00dfe 9, Blaustein, Germany",
                "CC": "Gaiser",
                "Technik": "BHKW"
            }
        },
        {
            "type": "Feature",
            "geometry": {
                "type": "Point",
                "coordinates": [
                    8.988444585548514,
                    48.68331190000001
                ]
            },
            "properties": {
                "address": "Hanns-Klemm-Str. 20, B\u00f6blingen, Germany",
                "CC": "Maurer",
                "Technik": "Gas-BW"
            }
        },
        {
            "type": "Feature",
            "geometry": {
                "type": "Point",
                "coordinates": [
                    10.175863992514923,
                    48.22933713294074
                ]
            },
            "properties": {
                "address": "Fuggerstr. 2a, Buch, Germany",
                "CC": "Gaiser",
                "Technik": "WLV (BHKW + Kessel)"
            }
        },
        {
            "type": "Feature",
            "geometry": {
                "type": "Point",
                "coordinates": [
                    7.177325418528316,
                    50.15828765
                ]
            },
            "properties": {
                "address": "Moritzburger Str. 1, Cochem (Cond), Germany",
                "CC": "Maxeiner",
                "Technik": "HHS & \u00d6lkessel"
            }
        },
        {
            "type": "Feature",
            "geometry": {
                "type": "Point",
                "coordinates": [
                    10.05341199905505,
                    49.12775775
                ]
            },
            "properties": {
                "address": "Gaildorferstr. 107, Crailsheim, Germany",
                "CC": "Gaiser",
                "Technik": "unbekannt"
            }
        },
        {
            "type": "Feature",
            "geometry": {
                "type": "Point",
                "coordinates": [
                    8.123519472351603,
                    47.731192449999995
                ]
            },
            "properties": {
                "address": "Zum Studenhof 4, Dachsberg, Germany",
                "CC": "Binkert",
                "Technik": "Kessel (Pellets, \u00d6l)"
            }
        },
        {
            "type": "Feature",
            "geometry": {
                "type": "Point",
                "coordinates": [
                    8.54167546999273,
                    48.09016133183024
                ]
            },
            "properties": {
                "address": "Hessestr. 5+7, Dauchingen, Germany",
                "CC": "Maurer",
                "Technik": "WLV (BHKW + Kessel)"
            }
        },
        {
            "type": "Feature",
            "geometry": {
                "type": "Point",
                "coordinates": [
                    14.2521364,
                    51.1449833
                ]
            },
            "properties": {
                "address": "Am Schloss 2, Demitz-Thumitz, Germany",
                "CC": "Maier",
                "Technik": "Gas-BW"
            }
        },
        {
            "type": "Feature",
            "geometry": {
                "type": "Point",
                "coordinates": [
                    14.25279,
                    51.1448401
                ]
            },
            "properties": {
                "address": "Am Schloss 11, Demitz-Thumitz, Germany",
                "CC": "Maier",
                "Technik": "Gas-BW"
            }
        },
        {
            "type": "Feature",
            "geometry": {
                "type": "Point",
                "coordinates": [
                    14.268801354076157,
                    51.16581655
                ]
            },
            "properties": {
                "address": "Schulstr. 1, Demitz-Thumitz, Germany",
                "CC": "Maier",
                "Technik": "Gas-BW"
            }
        },
        {
            "type": "Feature",
            "geometry": {
                "type": "Point",
                "coordinates": [
                    9.312941549999998,
                    48.69457575
                ]
            },
            "properties": {
                "address": "Hintere Gasse 52, Denkendorf, Germany",
                "CC": "Maier",
                "Technik": "Gas-BW"
            }
        },
        {
            "type": "Feature",
            "geometry": {
                "type": "Point",
                "coordinates": [
                    9.357937506759656,
                    48.71124155
                ]
            },
            "properties": {
                "address": "K\u00f6rschtalstra\u00dfe 100, Denkendorf, Germany",
                "CC": "Maier",
                "Technik": "Pellets & Gas"
            }
        },
        {
            "type": "Feature",
            "geometry": {
                "type": "Point",
                "coordinates": [
                    9.454470860693466,
                    48.6227301
                ]
            },
            "properties": {
                "address": "Kirchheimer Str. 164, Dettingen, Germany",
                "CC": "Schetter",
                "Technik": "BS BHKW + Kessel (Gas bauseits)"
            }
        },
        {
            "type": "Feature",
            "geometry": {
                "type": "Point",
                "coordinates": [
                    10.490852495962852,
                    48.579476299999996
                ]
            },
            "properties": {
                "address": "Landratsamt Dillingen, Dillingen, Germany",
                "CC": "Gaiser",
                "Technik": "Fernw\u00e4rme"
            }
        },
        {
            "type": "Feature",
            "geometry": {
                "type": "Point",
                "coordinates": [
                    8.503391044910654,
                    48.469892467816656
                ]
            },
            "properties": {
                "address": "T\u00fcbinger Str. 1-5, Dornstetten, Germany",
                "CC": "Maurer",
                "Technik": "WLV (BHKW + Kessel)"
            }
        },
        {
            "type": "Feature",
            "geometry": {
                "type": "Point",
                "coordinates": [
                    13.78185525032368,
                    51.03629705
                ]
            },
            "properties": {
                "address": "Tetschener Stra\u00dfe 32, Dresden, Germany",
                "CC": "Sch\u00fctze",
                "Technik": "Gas-BW"
            }
        },
        {
            "type": "Feature",
            "geometry": {
                "type": "Point",
                "coordinates": [
                    9.716791241294194,
                    48.2843985
                ]
            },
            "properties": {
                "address": "Merowingerweg 1, Ehingen, Germany",
                "CC": "Gaiser",
                "Technik": "WLV (BHKW + Kessel)"
            }
        },
        {
            "type": "Feature",
            "geometry": {
                "type": "Point",
                "coordinates": [
                    9.714690595227273,
                    48.6926182
                ]
            },
            "properties": {
                "address": "Ulmer Str. 65, Eislingen, Germany",
                "CC": "Kurfess",
                "Technik": "Kessel (Gas) + BHKW"
            }
        },
        {
            "type": "Feature",
            "geometry": {
                "type": "Point",
                "coordinates": [
                    9.717419022105119,
                    48.6991192
                ]
            },
            "properties": {
                "address": "Staufeneckstr. 44, Eislingen, Germany",
                "CC": "Kurfess",
                "Technik": "Kessel (Gas) + BHKW"
            }
        },
        {
            "type": "Feature",
            "geometry": {
                "type": "Point",
                "coordinates": [
                    10.05445123126676,
                    48.43526326309411
                ]
            },
            "properties": {
                "address": "Eichenstra\u00dfe 1-9, Elchingen, Germany",
                "CC": "Gaiser",
                "Technik": "Kessel"
            }
        },
        {
            "type": "Feature",
            "geometry": {
                "type": "Point",
                "coordinates": [
                    9.250512351730894,
                    48.47812145
                ]
            },
            "properties": {
                "address": "Arbachtalstra\u00dfe 1, Eningen, Germany",
                "CC": "Maier",
                "Technik": "Gas-BW"
            }
        },
        {
            "type": "Feature",
            "geometry": {
                "type": "Point",
                "coordinates": [
                    9.277658005582698,
                    48.7461206
                ]
            },
            "properties": {
                "address": "Rul\u00e4nderstr. 7, Esslingen, Germany",
                "CC": "Schetter",
                "Technik": "WLV (BHKW + Kessel)"
            }
        },
        {
            "type": "Feature",
            "geometry": {
                "type": "Point",
                "coordinates": [
                    9.306267670158508,
                    48.73864535
                ]
            },
            "properties": {
                "address": "Allmandgasse 1, Esslingen, Germany",
                "CC": "Maier",
                "Technik": "WLV (BHKW + Kessel)"
            }
        },
        {
            "type": "Feature",
            "geometry": {
                "type": "Point",
                "coordinates": [
                    9.320304400288524,
                    48.7567885
                ]
            },
            "properties": {
                "address": "Talstr. 117, Esslingen, Germany",
                "CC": "Maier",
                "Technik": "WLV (BHKW + Kessel)"
            }
        },
        {
            "type": "Feature",
            "geometry": {
                "type": "Point",
                "coordinates": [
                    9.296006068349596,
                    48.76055183798509
                ]
            },
            "properties": {
                "address": "Hertfelder Str. 23-25, Esslingen, Germany",
                "CC": "Schetter",
                "Technik": "WLV (BHKW + Kessel)"
            }
        },
        {
            "type": "Feature",
            "geometry": {
                "type": "Point",
                "coordinates": [
                    8.366461572529733,
                    48.9413937
                ]
            },
            "properties": {
                "address": "Rudolf-Plank-Str. 23, Ettlingen, Germany",
                "CC": "J\u00f6rke & Weber",
                "Technik": "Bereitst. K\u00e4lte + PV + WLV (Gas bauseits)"
            }
        },
        {
            "type": "Feature",
            "geometry": {
                "type": "Point",
                "coordinates": [
                    8.391568504203777,
                    48.9473308
                ]
            },
            "properties": {
                "address": "Rheinstr. 145, Ettlingen, Germany",
                "CC": "J\u00f6rke & Weber",
                "Technik": "WLV (BHKW + Kessel)"
            }
        },
        {
            "type": "Feature",
            "geometry": {
                "type": "Point",
                "coordinates": [
                    8.376818073399074,
                    48.925156799999996
                ]
            },
            "properties": {
                "address": "Pfinzweg 2, Ettlingenweier, Germany",
                "CC": "J\u00f6rke & Weber",
                "Technik": "WLV (BHKW + Kessel)"
            }
        },
        {
            "type": "Feature",
            "geometry": {
                "type": "Point",
                "coordinates": [
                    6.802360462579353,
                    50.66688315
                ]
            },
            "properties": {
                "address": "Badewelt 1, Euskirchen, Germany",
                "CC": "Binkert",
                "Technik": "Kessel  ((Bio-)Gas, \u00d6l, Dampf), BHKW"
            }
        },
        {
            "type": "Feature",
            "geometry": {
                "type": "Point",
                "coordinates": [
                    9.195031839966617,
                    48.6462709
                ]
            },
            "properties": {
                "address": "Forststr. 12, Filderstadt, Germany",
                "CC": "Schetter",
                "Technik": "WLV (BHKW + Kessel)"
            }
        },
        {
            "type": "Feature",
            "geometry": {
                "type": "Point",
                "coordinates": [
                    8.653206133326679,
                    50.089380500000004
                ]
            },
            "properties": {
                "address": "Holzhecke 29, Frankfurt, Germany",
                "CC": "Glitsch",
                "Technik": "Kessel (Gas) + Solar"
            }
        },
        {
            "type": "Feature",
            "geometry": {
                "type": "Point",
                "coordinates": [
                    8.60414688952925,
                    50.12703605
                ]
            },
            "properties": {
                "address": "Kirschbaumweg 6b, Frankfurt, Germany",
                "CC": "Glitsch",
                "Technik": "Kessel (Gas) + Solar"
            }
        },
        {
            "type": "Feature",
            "geometry": {
                "type": "Point",
                "coordinates": [
                    7.85834172135182,
                    47.996531649999994
                ]
            },
            "properties": {
                "address": "Schlossbergring 15, Freiburg, Germany",
                "CC": "Binkert",
                "Technik": "Kessel (Gas)"
            }
        },
        {
            "type": "Feature",
            "geometry": {
                "type": "Point",
                "coordinates": [
                    7.819146094156421,
                    48.04065625
                ]
            },
            "properties": {
                "address": "Hanferstr. 20, Freiburg, Germany",
                "CC": "Binkert",
                "Technik": "Kessel (Gas)"
            }
        },
        {
            "type": "Feature",
            "geometry": {
                "type": "Point",
                "coordinates": [
                    9.414846777867098,
                    47.68978101347128
                ]
            },
            "properties": {
                "address": "K\u00f6nigs\u00e4cker 1-5, Friedrichshafen, Germany",
                "CC": "Schetter",
                "Technik": "WLV (BHKW + Kessel)"
            }
        },
        {
            "type": "Feature",
            "geometry": {
                "type": "Point",
                "coordinates": [
                    9.415123565718623,
                    47.69058610005705
                ]
            },
            "properties": {
                "address": "Hugenloh 7, Friedrichshafen-Efrizweiler, Germany",
                "CC": "Schetter",
                "Technik": "WLV (BHKW + Kessel)"
            }
        },
        {
            "type": "Feature",
            "geometry": {
                "type": "Point",
                "coordinates": [
                    10.990150695855615,
                    49.46513005
                ]
            },
            "properties": {
                "address": "Holzstr. 52, F\u00fcrth, Germany",
                "CC": "Benzinger",
                "Technik": "unbekannt"
            }
        },
        {
            "type": "Feature",
            "geometry": {
                "type": "Point",
                "coordinates": [
                    8.894023662825077,
                    48.636472397564056
                ]
            },
            "properties": {
                "address": "Grabenstra\u00dfe 62 a / b, G\u00e4rtringen, Germany",
                "CC": "Maier",
                "Technik": "\u00d6lkessel"
            }
        },
        {
            "type": "Feature",
            "geometry": {
                "type": "Point",
                "coordinates": [
                    10.0711494,
                    48.6019782
                ]
            },
            "properties": {
                "address": "Heuchlinger Str. 33-35, Gerstetten-Heldenfingen, Germany",
                "CC": "Gaiser",
                "Technik": "BHKW + Kessel (Gas bauseits)"
            }
        },
        {
            "type": "Feature",
            "geometry": {
                "type": "Point",
                "coordinates": [
                    10.236134747337069,
                    48.62065438763082
                ]
            },
            "properties": {
                "address": "Bahnhofstra\u00dfe 70, Giengen, Germany",
                "CC": "Gaiser",
                "Technik": "BHKW"
            }
        },
        {
            "type": "Feature",
            "geometry": {
                "type": "Point",
                "coordinates": [
                    10.238668302345696,
                    48.622087
                ]
            },
            "properties": {
                "address": "Richard-Steiff-Str. 4, Giengen an der Brenz, Germany",
                "CC": "Gaiser",
                "Technik": "BHKW"
            }
        },
        {
            "type": "Feature",
            "geometry": {
                "type": "Point",
                "coordinates": [
                    9.697275613394098,
                    48.67202775
                ]
            },
            "properties": {
                "address": "Staufeneckstr. 5, G\u00f6ppingen, Germany",
                "CC": "Kurfess",
                "Technik": "Kessel (Gas) + BHKW"
            }
        },
        {
            "type": "Feature",
            "geometry": {
                "type": "Point",
                "coordinates": [
                    9.647782282584036,
                    48.7050071
                ]
            },
            "properties": {
                "address": "Stuttgarter Str. 3, G\u00f6ppingen, Germany",
                "CC": "Gaiser",
                "Technik": "unbekannt"
            }
        },
        {
            "type": "Feature",
            "geometry": {
                "type": "Point",
                "coordinates": [
                    9.658389364554345,
                    48.71119219365699
                ]
            },
            "properties": {
                "address": "Erzberger Str. 6-12, G\u00f6ppingen, Germany",
                "CC": "Benzinger",
                "Technik": "unbekannt"
            }
        },
        {
            "type": "Feature",
            "geometry": {
                "type": "Point",
                "coordinates": [
                    9.651638509430184,
                    48.6990131
                ]
            },
            "properties": {
                "address": "Jahnstr. 30, G\u00f6ppingen, Germany",
                "CC": "Gaiser",
                "Technik": "unbekannt"
            }
        },
        {
            "type": "Feature",
            "geometry": {
                "type": "Point",
                "coordinates": [
                    8.762092899672226,
                    48.13256447350724
                ]
            },
            "properties": {
                "address": "Heerwasenstra\u00dfe 25, Gosheim, Germany",
                "CC": "Maurer",
                "Technik": "Gas-BW"
            }
        },
        {
            "type": "Feature",
            "geometry": {
                "type": "Point",
                "coordinates": [
                    7.662668958176155,
                    47.552538
                ]
            },
            "properties": {
                "address": "Markgrafenstr. 11, Grenzach-Wyhlen, Germany",
                "CC": "Binkert",
                "Technik": "unbekannt"
            }
        },
        {
            "type": "Feature",
            "geometry": {
                "type": "Point",
                "coordinates": [
                    14.713825,
                    51.9531398
                ]
            },
            "properties": {
                "address": "Berliner Str. 13-16, Guben, Germany",
                "CC": "Gellert & Meitzner",
                "Technik": "Gas-BW"
            }
        },
        {
            "type": "Feature",
            "geometry": {
                "type": "Point",
                "coordinates": [
                    11.184944985791205,
                    53.420045200000004
                ]
            },
            "properties": {
                "address": "Steegener Chaussee 13, Hagenow, Germany",
                "CC": "J\u00f6rke & Weber",
                "Technik": "Bereitst. BHKW"
            }
        },
        {
            "type": "Feature",
            "geometry": {
                "type": "Point",
                "coordinates": [
                    10.138314263419192,
                    48.66493427182303
                ]
            },
            "properties": {
                "address": "Heilbronner Str. 113-117, Heidenheim, Germany",
                "CC": "Gaiser",
                "Technik": "unbekannt"
            }
        },
        {
            "type": "Feature",
            "geometry": {
                "type": "Point",
                "coordinates": [
                    9.999708286349072,
                    48.34002456824598
                ]
            },
            "properties": {
                "address": "Hauptstra\u00dfe 42 & 44, Illerkirchberg, Germany",
                "CC": "Gaiser",
                "Technik": "Kessel (Gas)"
            }
        },
        {
            "type": "Feature",
            "geometry": {
                "type": "Point",
                "coordinates": [
                    10.101916032145361,
                    48.22551005890122
                ]
            },
            "properties": {
                "address": "Hermann-K\u00f6hl-Stra\u00dfe 1-9, Illertissen, Germany",
                "CC": "Gaiser",
                "Technik": "Kessel (Gas)"
            }
        },
        {
            "type": "Feature",
            "geometry": {
                "type": "Point",
                "coordinates": [
                    10.1013247,
                    48.225407849999996
                ]
            },
            "properties": {
                "address": "Lorenz-Klotz-Stra\u00dfe 1-5, Illertissen, Germany",
                "CC": "Gaiser",
                "Technik": "Kessel (Gas)"
            }
        },
        {
            "type": "Feature",
            "geometry": {
                "type": "Point",
                "coordinates": [
                    10.1013247,
                    48.225407849999996
                ]
            },
            "properties": {
                "address": "Lorenz-Klotz-Stra\u00dfe 6-9, Illertissen, Germany",
                "CC": "Gaiser",
                "Technik": "Kessel (Gas)"
            }
        },
        {
            "type": "Feature",
            "geometry": {
                "type": "Point",
                "coordinates": [
                    8.36344632324213,
                    48.9878145
                ]
            },
            "properties": {
                "address": "Otto-Wels-Str. 11, Karlsruhe, Germany",
                "CC": "J\u00f6rke & Weber",
                "Technik": "BS BHKW + Kessel (Gas bauseits)"
            }
        },
        {
            "type": "Feature",
            "geometry": {
                "type": "Point",
                "coordinates": [
                    9.45491805,
                    48.64056835
                ]
            },
            "properties": {
                "address": "Weisestr., Kirchheim, Germany",
                "CC": "Benzinger",
                "Technik": "unbekannt"
            }
        },
        {
            "type": "Feature",
            "geometry": {
                "type": "Point",
                "coordinates": [
                    9.362697203448276,
                    48.68452955
                ]
            },
            "properties": {
                "address": "Hirschstra\u00dfe 2, K\u00f6ngen, Germany",
                "CC": "Maier",
                "Technik": "Gas-BW"
            }
        },
        {
            "type": "Feature",
            "geometry": {
                "type": "Point",
                "coordinates": [
                    9.3671022,
                    48.6794264
                ]
            },
            "properties": {
                "address": "Bahnhofstr. 1, K\u00f6ngen, Germany",
                "CC": "Maier",
                "Technik": "Gas-BW"
            }
        },
        {
            "type": "Feature",
            "geometry": {
                "type": "Point",
                "coordinates": [
                    9.362863859376425,
                    48.6862945
                ]
            },
            "properties": {
                "address": "Wagnerstr. 7, K\u00f6ngen, Germany",
                "CC": "Maier",
                "Technik": "Gas-BW"
            }
        },
        {
            "type": "Feature",
            "geometry": {
                "type": "Point",
                "coordinates": [
                    9.680415722467636,
                    48.489432306763895
                ]
            },
            "properties": {
                "address": "Uhlandstr. 9-11, Laichingen, Germany",
                "CC": "Gaiser",
                "Technik": "Kessel + BHKW"
            }
        },
        {
            "type": "Feature",
            "geometry": {
                "type": "Point",
                "coordinates": [
                    8.660136776789162,
                    49.992516342839096
                ]
            },
            "properties": {
                "address": "Gartenstr. 1-3, Langen, Germany",
                "CC": "Glitsch",
                "Technik": "Kessel (Pellets, Gas) + Solar"
            }
        },
        {
            "type": "Feature",
            "geometry": {
                "type": "Point",
                "coordinates": [
                    9.16957039737019,
                    48.670973399999994
                ]
            },
            "properties": {
                "address": "Haldenstr. 4, Leinfelden-Echterdingen, Germany",
                "CC": "Schetter",
                "Technik": "WLV (BHKW + Kessel)"
            }
        },
        {
            "type": "Feature",
            "geometry": {
                "type": "Point",
                "coordinates": [
                    9.291023669943332,
                    48.54186343408472
                ]
            },
            "properties": {
                "address": "Im F\u00f6rstlen 1-7, Metzingen, Germany",
                "CC": "Schetter",
                "Technik": "WLV (BHKW + Kessel)"
            }
        },
        {
            "type": "Feature",
            "geometry": {
                "type": "Point",
                "coordinates": [
                    9.27740077368668,
                    48.534852400000005
                ]
            },
            "properties": {
                "address": "Reutlinger Str. 74, Metzingen, Germany",
                "CC": "Benzinger",
                "Technik": "unbekannt"
            }
        },
        {
            "type": "Feature",
            "geometry": {
                "type": "Point",
                "coordinates": [
                    9.287285185855033,
                    48.53738002435561
                ]
            },
            "properties": {
                "address": "Helferstr. 9+11, Metzingen, Germany",
                "CC": "Benzinger",
                "Technik": "unbekannt"
            }
        },
        {
            "type": "Feature",
            "geometry": {
                "type": "Point",
                "coordinates": [
                    12.534916737158595,
                    48.26188582095548
                ]
            },
            "properties": {
                "address": "Gutenbergring 8-20, M\u00fchldorf, Germany",
                "CC": "Benzinger",
                "Technik": "WLV (BHKW m. BGG + Kessel)"
            }
        },
        {
            "type": "Feature",
            "geometry": {
                "type": "Point",
                "coordinates": [
                    12.39397604101817,
                    49.3396323
                ]
            },
            "properties": {
                "address": "Industriestr. 3, Neunburg vorm Wald, Germany",
                "CC": "J\u00f6rke & Weber",
                "Technik": "Bereitst. BHKW"
            }
        },
        {
            "type": "Feature",
            "geometry": {
                "type": "Point",
                "coordinates": [
                    9.329805201842051,
                    48.6262568
                ]
            },
            "properties": {
                "address": "Neckarstr. 20, N\u00fcrtingen, Germany",
                "CC": "Maier",
                "Technik": "W\u00e4rme & K\u00e4lte"
            }
        },
        {
            "type": "Feature",
            "geometry": {
                "type": "Point",
                "coordinates": [
                    9.330240066936026,
                    48.641557399999996
                ]
            },
            "properties": {
                "address": "Wendlinger Stra\u00dfe 49, N\u00fcrtingen-Oberensingen, Germany",
                "CC": "Maier",
                "Technik": "Pellets Monovalent"
            }
        },
        {
            "type": "Feature",
            "geometry": {
                "type": "Point",
                "coordinates": [
                    7.94994106588212,
                    48.485671302351996
                ]
            },
            "properties": {
                "address": "Maria-und-Georg-Dietrich-Str. 15, Offenburg, Germany",
                "CC": "Maurer",
                "Technik": "WLV (BHKW + Kessel)"
            }
        },
        {
            "type": "Feature",
            "geometry": {
                "type": "Point",
                "coordinates": [
                    10.373503273237658,
                    48.48119310572252
                ]
            },
            "properties": {
                "address": "Bahnhofstr. 20, Offingen, Germany",
                "CC": "J\u00f6rke & Weber",
                "Technik": "Bereitst. BHKW"
            }
        },
        {
            "type": "Feature",
            "geometry": {
                "type": "Point",
                "coordinates": [
                    9.4494464,
                    48.9832865
                ]
            },
            "properties": {
                "address": "Mehlklinge, Oppenweiler, Germany",
                "CC": "Benzinger",
                "Technik": "unbekannt"
            }
        },
        {
            "type": "Feature",
            "geometry": {
                "type": "Point",
                "coordinates": [
                    9.42670924070164,
                    48.71128415
                ]
            },
            "properties": {
                "address": "Mozartstra\u00dfe 19, Plochingen, Germany",
                "CC": "Maier",
                "Technik": "Gas-BW"
            }
        },
        {
            "type": "Feature",
            "geometry": {
                "type": "Point",
                "coordinates": [
                    9.4162371,
                    48.712323600000005
                ]
            },
            "properties": {
                "address": "Br\u00fchlstra\u00dfe 16, Plochingen, Germany",
                "CC": "Maier",
                "Technik": "WLV (BHKW + Kessel)"
            }
        },
        {
            "type": "Feature",
            "geometry": {
                "type": "Point",
                "coordinates": [
                    8.91489941623339,
                    48.77592082921247
                ]
            },
            "properties": {
                "address": "Nelkenstr., Renningen, Germany",
                "CC": "Benzinger",
                "Technik": "unbekannt"
            }
        },
        {
            "type": "Feature",
            "geometry": {
                "type": "Point",
                "coordinates": [
                    9.472296497327461,
                    48.87493715987994
                ]
            },
            "properties": {
                "address": "Stein\u00e4ckerstr., Rettersburg, Germany",
                "CC": "Benzinger",
                "Technik": "Pellets monovalent"
            }
        },
        {
            "type": "Feature",
            "geometry": {
                "type": "Point",
                "coordinates": [
                    8.323578343474779,
                    48.9812829
                ]
            },
            "properties": {
                "address": "Nell-Breuning-Ring 3, Rheinstetten, Germany",
                "CC": "Schetter",
                "Technik": "WLV (BHKW + Kessel)"
            }
        },
        {
            "type": "Feature",
            "geometry": {
                "type": "Point",
                "coordinates": [
                    8.832535436831595,
                    47.727671400000006
                ]
            },
            "properties": {
                "address": "Grenzstra\u00dfe 25, Rielasingen, Germany",
                "CC": "Widmann",
                "Technik": "\u00d6lkessel (Bio\u00f6l)"
            }
        },
        {
            "type": "Feature",
            "geometry": {
                "type": "Point",
                "coordinates": [
                    10.2286813,
                    48.2750748
                ]
            },
            "properties": {
                "address": "Klosterstra\u00dfe 5, Roggenburg, Germany",
                "CC": "Gaiser",
                "Technik": "Kessel (HHS, \u00d6l)"
            }
        },
        {
            "type": "Feature",
            "geometry": {
                "type": "Point",
                "coordinates": [
                    11.23532217485752,
                    49.48278048967059
                ]
            },
            "properties": {
                "address": "Pegnitzstr. 26, R\u00f6thenbach, Germany",
                "CC": "Benzinger",
                "Technik": "unbekannt"
            }
        },
        {
            "type": "Feature",
            "geometry": {
                "type": "Point",
                "coordinates": [
                    8.641814199999999,
                    48.15603075
                ]
            },
            "properties": {
                "address": "\u00d6schlestra\u00dfe 2, Rottweil, Germany",
                "CC": "Maurer",
                "Technik": "Gas-BW"
            }
        },
        {
            "type": "Feature",
            "geometry": {
                "type": "Point",
                "coordinates": [
                    9.718003581079845,
                    48.362237500000006
                ]
            },
            "properties": {
                "address": "Auenweg 5, Schelklingen (Schmiechen), Germany",
                "CC": "Gaiser",
                "Technik": "Kessel (Gas)"
            }
        },
        {
            "type": "Feature",
            "geometry": {
                "type": "Point",
                "coordinates": [
                    7.825088717115953,
                    47.6522264
                ]
            },
            "properties": {
                "address": "Hauptstr. 111, Schopfheim, Germany",
                "CC": "Binkert",
                "Technik": "unbekannt"
            }
        },
        {
            "type": "Feature",
            "geometry": {
                "type": "Point",
                "coordinates": [
                    8.377751560781082,
                    48.2345788
                ]
            },
            "properties": {
                "address": "H\u00f6flestra\u00dfe 1, Schramberg, Germany",
                "CC": "Maurer",
                "Technik": "WLV (BHKW + Kessel)"
            }
        },
        {
            "type": "Feature",
            "geometry": {
                "type": "Point",
                "coordinates": [
                    8.423496917146776,
                    48.2183454
                ]
            },
            "properties": {
                "address": "Panoramastra\u00dfe 49, Schramberg (Sulgen), Germany",
                "CC": "Maurer",
                "Technik": "Gas-BW"
            }
        },
        {
            "type": "Feature",
            "geometry": {
                "type": "Point",
                "coordinates": [
                    8.4244772,
                    48.2357742
                ]
            },
            "properties": {
                "address": "Dr.-Kurt-Steim-Stra\u00dfe 35, Schramberg-Sulgen, Germany",
                "CC": "Maurer",
                "Technik": "Bereitst. BHKW"
            }
        },
        {
            "type": "Feature",
            "geometry": {
                "type": "Point",
                "coordinates": [
                    9.80256371289984,
                    48.80228288682165
                ]
            },
            "properties": {
                "address": "Vordere Schmiedgasse, Schw\u00e4bisch Gm\u00fcnd, Germany",
                "CC": "K\u00f6nig",
                "Technik": "Gas-BW"
            }
        },
        {
            "type": "Feature",
            "geometry": {
                "type": "Point",
                "coordinates": [
                    9.822936944849559,
                    48.79280999572892
                ]
            },
            "properties": {
                "address": "Am Sonnenh\u00fcgel 4, Schw\u00e4bisch Gm\u00fcnd, Germany",
                "CC": "Benzinger",
                "Technik": "unbekannt"
            }
        },
        {
            "type": "Feature",
            "geometry": {
                "type": "Point",
                "coordinates": [
                    9.3479468,
                    48.8673913
                ]
            },
            "properties": {
                "address": "Sophie-Scholl-Str. 15, Schwaikheim, Germany",
                "CC": "Schetter",
                "Technik": "WLV (BHKW + Kessel)"
            }
        },
        {
            "type": "Feature",
            "geometry": {
                "type": "Point",
                "coordinates": [
                    8.865449625158428,
                    47.7550208
                ]
            },
            "properties": {
                "address": "Freib\u00fchlstr. 13, Singen, Germany",
                "CC": "Widmann",
                "Technik": "Gas-BW"
            }
        },
        {
            "type": "Feature",
            "geometry": {
                "type": "Point",
                "coordinates": [
                    8.844416199999998,
                    47.762494000000004
                ]
            },
            "properties": {
                "address": "Schwarzwaldstra\u00dfe 40, Singen, Germany",
                "CC": "Widmann",
                "Technik": "\u00d6lkessel"
            }
        },
        {
            "type": "Feature",
            "geometry": {
                "type": "Point",
                "coordinates": [
                    8.867379823123374,
                    47.754498549999994
                ]
            },
            "properties": {
                "address": "Gaisenrain 26, Singen, Germany",
                "CC": "Widmann",
                "Technik": "Pellets Monovalent"
            }
        },
        {
            "type": "Feature",
            "geometry": {
                "type": "Point",
                "coordinates": [
                    8.882903050343085,
                    49.235752
                ]
            },
            "properties": {
                "address": "Badewelt 1, Sinsheim, Germany",
                "CC": "Binkert",
                "Technik": "Kessel  (Gas, \u00d6l), BHKW"
            }
        },
        {
            "type": "Feature",
            "geometry": {
                "type": "Point",
                "coordinates": [
                    10.279689120192309,
                    47.52412115
                ]
            },
            "properties": {
                "address": "Hans-B\u00f6ckler-Str. 7, Sonthofen, Germany",
                "CC": "Gaiser",
                "Technik": "BHKW"
            }
        },
        {
            "type": "Feature",
            "geometry": {
                "type": "Point",
                "coordinates": [
                    8.127112396214738,
                    47.76213265
                ]
            },
            "properties": {
                "address": "Todtmooserstr. 2, St. Blasien, Germany",
                "CC": "Binkert",
                "Technik": "Kessel  (\u00d6l)"
            }
        },
        {
            "type": "Feature",
            "geometry": {
                "type": "Point",
                "coordinates": [
                    8.531101,
                    48.8441334
                ]
            },
            "properties": {
                "address": "R\u00f6merstra\u00dfe 3, Straubenhardt, Germany",
                "CC": "J\u00f6rke & Weber",
                "Technik": "WLV (BHKW + Kessel)"
            }
        },
        {
            "type": "Feature",
            "geometry": {
                "type": "Point",
                "coordinates": [
                    9.16772033155263,
                    48.7081045
                ]
            },
            "properties": {
                "address": "Vor dem Lauch 20, Stuttgart, Germany",
                "CC": "Schetter",
                "Technik": "BHKW (Bereitst. & WLV mit AP)"
            }
        },
        {
            "type": "Feature",
            "geometry": {
                "type": "Point",
                "coordinates": [
                    9.149011647844404,
                    48.77251085
                ]
            },
            "properties": {
                "address": "Rotenwaldstr. 68, Stuttgart, Germany",
                "CC": "Gaiser",
                "Technik": "Kessel (Gas)"
            }
        },
        {
            "type": "Feature",
            "geometry": {
                "type": "Point",
                "coordinates": [
                    9.247657177379924,
                    48.81824375
                ]
            },
            "properties": {
                "address": "Fuchsienweg 1, Stuttgart, Germany",
                "CC": "Schetter",
                "Technik": "Pellets (Mono)"
            }
        },
        {
            "type": "Feature",
            "geometry": {
                "type": "Point",
                "coordinates": [
                    8.159965703718758,
                    47.9068575
                ]
            },
            "properties": {
                "address": "Badeparadies Schwarzwald, Titisee-Neustadt, Germany",
                "CC": "Binkert",
                "Technik": "Kessel (HHS, Gas, \u00d6l), BHKW"
            }
        },
        {
            "type": "Feature",
            "geometry": {
                "type": "Point",
                "coordinates": [
                    8.213432886506551,
                    47.9087145
                ]
            },
            "properties": {
                "address": "Sch\u00fctzenstr. 10, Titisee-Neustadt, Germany",
                "CC": "Binkert",
                "Technik": "Kessel (Pellets)"
            }
        },
        {
            "type": "Feature",
            "geometry": {
                "type": "Point",
                "coordinates": [
                    9.067586833432589,
                    48.490279
                ]
            },
            "properties": {
                "address": "Hechinger Stra\u00dfe 262, T\u00fcbingen, Germany",
                "CC": "Maier",
                "Technik": "Gas-BW"
            }
        },
        {
            "type": "Feature",
            "geometry": {
                "type": "Point",
                "coordinates": [
                    9.18257733974359,
                    47.7600767
                ]
            },
            "properties": {
                "address": "Manzweg 4, \u00dcberlingen, Germany",
                "CC": "Maurer",
                "Technik": "WLV (BHKW + Kessel)"
            }
        },
        {
            "type": "Feature",
            "geometry": {
                "type": "Point",
                "coordinates": [
                    9.168845376971326,
                    47.772420249999996
                ]
            },
            "properties": {
                "address": "Alte Owinger Str. 12, \u00dcberlingen, Germany",
                "CC": "Benzinger",
                "Technik": "unbekannt"
            }
        },
        {
            "type": "Feature",
            "geometry": {
                "type": "Point",
                "coordinates": [
                    10.028699640630604,
                    48.43546137657357
                ]
            },
            "properties": {
                "address": "Sudetenweg 26-38, Ulm, Germany",
                "CC": "Gaiser",
                "Technik": "Kessel + BHKW"
            }
        },
        {
            "type": "Feature",
            "geometry": {
                "type": "Point",
                "coordinates": [
                    7.763580367704938,
                    48.03054655
                ]
            },
            "properties": {
                "address": "Hauptstra\u00dfe 22, Umkirch, Germany",
                "CC": "Binkert",
                "Technik": "Kessel (Gas), BHKW"
            }
        },
        {
            "type": "Feature",
            "geometry": {
                "type": "Point",
                "coordinates": [
                    8.456022979745669,
                    48.070009299999995
                ]
            },
            "properties": {
                "address": "Konstanzer Str. 6, Villingen-Schwenningen, Germany",
                "CC": "Maurer",
                "Technik": "WLV (BHKW + Kessel)"
            }
        },
        {
            "type": "Feature",
            "geometry": {
                "type": "Point",
                "coordinates": [
                    8.542746051899242,
                    48.06306830552825
                ]
            },
            "properties": {
                "address": "Eberhardstr. 48-52, Villingen-Schwenningen, Germany",
                "CC": "Maurer",
                "Technik": "WLV (BHKW + Kessel)"
            }
        },
        {
            "type": "Feature",
            "geometry": {
                "type": "Point",
                "coordinates": [
                    9.30908451475356,
                    48.823947835615684
                ]
            },
            "properties": {
                "address": "Kappelbergstr. 21-25, Waiblingen, Germany",
                "CC": "Schetter",
                "Technik": "WLV (BHKW + Kessel)"
            }
        },
        {
            "type": "Feature",
            "geometry": {
                "type": "Point",
                "coordinates": [
                    8.47125741732155,
                    48.9251241
                ]
            },
            "properties": {
                "address": "Gartenstr. 2, Waldbronn, Germany",
                "CC": "J\u00f6rke & Weber",
                "Technik": "WLV (BHKW + Kessel)"
            }
        },
        {
            "type": "Feature",
            "geometry": {
                "type": "Point",
                "coordinates": [
                    8.241688993439524,
                    47.61504431555404
                ]
            },
            "properties": {
                "address": "Alfred-Nobel-Str. 20-22, Waldshut-Tiengen, Germany",
                "CC": "Binkert",
                "Technik": "W\u00e4rmepumpe"
            }
        },
        {
            "type": "Feature",
            "geometry": {
                "type": "Point",
                "coordinates": [
                    9.798053480733232,
                    48.12928325
                ]
            },
            "properties": {
                "address": "Bahnhofstr. 1, Warthausen, Germany",
                "CC": "Gaiser",
                "Technik": "BHKW"
            }
        },
        {
            "type": "Feature",
            "geometry": {
                "type": "Point",
                "coordinates": [
                    8.511138141159018,
                    49.06587819752397
                ]
            },
            "properties": {
                "address": "Ulmenplatz, Weingarten, Germany",
                "CC": "Benzinger",
                "Technik": "unbekannt"
            }
        },
        {
            "type": "Feature",
            "geometry": {
                "type": "Point",
                "coordinates": [
                    9.371257148212191,
                    48.8075456
                ]
            },
            "properties": {
                "address": "Pestalozzistra\u00dfe 34, Weinstadt, Germany",
                "CC": "Gaiser",
                "Technik": "Kessel (HHS, \u00d6l)"
            }
        },
        {
            "type": "Feature",
            "geometry": {
                "type": "Point",
                "coordinates": [
                    9.386196270725979,
                    48.8170265
                ]
            },
            "properties": {
                "address": "Br\u00fcckenstra\u00dfe 1, Weinstadt, Germany",
                "CC": "Schetter",
                "Technik": "Kessel + BHKW (W\u00e4rme- und Stromv.)"
            }
        },
        {
            "type": "Feature",
            "geometry": {
                "type": "Point",
                "coordinates": [
                    9.478827332445384,
                    48.92940255764465
                ]
            },
            "properties": {
                "address": "Welzheimer Str. 10-14, Weissach, Germany",
                "CC": "Benzinger",
                "Technik": "unbekannt"
            }
        },
        {
            "type": "Feature",
            "geometry": {
                "type": "Point",
                "coordinates": [
                    9.3810494988096,
                    48.67674822252066
                ]
            },
            "properties": {
                "address": "Fabrikstr. 47, Wendlingen, Germany",
                "CC": "Maier",
                "Technik": "Pellets & Gas"
            }
        },
        {
            "type": "Feature",
            "geometry": {
                "type": "Point",
                "coordinates": [
                    9.381944802603638,
                    48.67871609456363
                ]
            },
            "properties": {
                "address": "Behrstra\u00dfe 78, Wendlingen, Germany",
                "CC": "Maier",
                "Technik": "Pellets Monovalent"
            }
        },
        {
            "type": "Feature",
            "geometry": {
                "type": "Point",
                "coordinates": [
                    9.379755898200676,
                    48.679157116936274
                ]
            },
            "properties": {
                "address": "Seerosenweg 2, Wendlingen, Germany",
                "CC": "Maier",
                "Technik": "Pellets Monovalent"
            }
        },
        {
            "type": "Feature",
            "geometry": {
                "type": "Point",
                "coordinates": [
                    9.385473250000002,
                    48.676041
                ]
            },
            "properties": {
                "address": "Schwenkgasse 10, Wendlingen, Germany",
                "CC": "Maier",
                "Technik": "Pellets Monovalent"
            }
        },
        {
            "type": "Feature",
            "geometry": {
                "type": "Point",
                "coordinates": [
                    9.365183728245771,
                    48.662743334927285
                ]
            },
            "properties": {
                "address": "Unterboihinger Str. 15, Wendlingen, Germany",
                "CC": "Maier",
                "Technik": "WLV (BHKW + Kessel)"
            }
        },
        {
            "type": "Feature",
            "geometry": {
                "type": "Point",
                "coordinates": [
                    9.372419940396238,
                    48.666693910644334
                ]
            },
            "properties": {
                "address": "Im Vogelsang 6, Wendlingen, Germany",
                "CC": "Schetter",
                "Technik": "WLV (BHKW + Kessel)"
            }
        },
        {
            "type": "Feature",
            "geometry": {
                "type": "Point",
                "coordinates": [
                    9.419966350000003,
                    48.689946500000005
                ]
            },
            "properties": {
                "address": "Kirchheimer Str. 79, Wernau, Germany",
                "CC": "Maier",
                "Technik": "WLV (BHKW + Kessel)"
            }
        },
        {
            "type": "Feature",
            "geometry": {
                "type": "Point",
                "coordinates": [
                    10.679259112079077,
                    48.5655061
                ]
            },
            "properties": {
                "address": "Ebersberg 36, Wertingen, Germany",
                "CC": "Gaiser",
                "Technik": "Kessel  (HHS, Gas) + BHKW"
            }
        },
        {
            "type": "Feature",
            "geometry": {
                "type": "Point",
                "coordinates": [
                    9.428210966348425,
                    48.865215695471015
                ]
            },
            "properties": {
                "address": "Hof\u00e4ckerstr., Winnenden, Germany",
                "CC": "Schetter",
                "Technik": "WLV (BHKW + Kessel)"
            }
        },
        {
            "type": "Feature",
            "geometry": {
                "type": "Point",
                "coordinates": [
                    9.48330583805875,
                    48.80560895
                ]
            },
            "properties": {
                "address": "Rosenstra\u00dfe 42, Winterbach, Germany",
                "CC": "Schetter",
                "Technik": "BHKW (Bereitst. & WLV ohne AP)"
            }
        }
    ]
}